{
"type": "FeatureCollection",
"name": "ADelt51",
"crs": { "type": "name", "properties": { "name": "urn:ogc:def:crs:OGC:1.3:CRS84" } },
"features": [
{ "type": "Feature", "properties": { "id": 1, "Nom": null, "Nom_GR": "Θέση Μνημορούδι", "Texte": "Στα δυτικά και σε απόσταση μόλις 100μ. από το δρόμο Λιμένα-Παναγίας, δίπλα ακριβώς σε σύγχρονη κτηνοτροφική μονάδα, εντοπίστηκαν ίχνη κτισμα" }, "geometry": { "type": "Point", "coordinates": [ 24.711430897465394, 40.762716587352813 ] } },
{ "type": "Feature", "properties": { "id": 2, "Nom": null, "Nom_GR": "Θέση Ζυμλακκιό", "Texte": "Βρέθηκαν δύο κιβωτιόσχημοι τάφοι ιστορικών χρόνων, κατεστραμμένοι από τις καιρικές συνθήκες και τη διάνοιξη μικρού δασικού δρόμου." }, "geometry": { "type": "Point", "coordinates": [ 24.706403930712426, 40.75704066351738 ] } },
{ "type": "Feature", "properties": { "id": 3, "Nom": null, "Nom_GR": "Θέση Γονάτι.", "Texte": "Στο δυτικό πρανές του υψώματος Παλιόφουρνος όπου υπάρχουν ογκώδεις λιθοσωροί, προφανώς λείψανα αρχαίου πύργου μεγάλων διαστάσεων." }, "geometry": { "type": "Point", "coordinates": [ 24.694425477763346, 40.761980926298747 ] } },
{ "type": "Feature", "properties": { "id": 4, "Nom": null, "Nom_GR": "Θέση Άγιος Παντελεήμων", "Texte": "Στην περιοχή του παρεκκλησίου του Αγίου Παντελεήμονα, βόρεια του δασικού δρόμου που οδηγεί στους Τρεις Γκρεμούς, εντοπίστηκε οδόστρωμα πο" }, "geometry": { "type": "Point", "coordinates": [ 24.724573080887406, 40.743080623364392 ] } },
{ "type": "Feature", "properties": { "id": 5, "Nom": null, "Nom_GR": "Θέση Βραχούδι", "Texte": "Στα ανατολικά όρια της θέσης, απέναντι από το λατομείο Κυριακίδη, εντοπίστηκε άφθονη κεραμική ιστορικών χρόνων μαζί με θραύσματα κεραμιδι" }, "geometry": { "type": "Point", "coordinates": [ 24.683344931190206, 40.757766960801568 ] } },
{ "type": "Feature", "properties": { "id": 6, "Nom": null, "Nom_GR": "Θέση Σκαμνιά", "Texte": "Σε πλάτωμα με αρκετά μεγάλο υψόμετρο, πάνω από το εκκλησάκι της Αγίας Ειρήνης, εντοπίστηκαν οικοδομικά λείψανα." }, "geometry": { "type": "Point", "coordinates": [ 24.680444835264215, 40.776415118775603 ] } },
{ "type": "Feature", "properties": { "id": 7, "Nom": null, "Nom_GR": "Θέση Φωλιά", "Texte": "Σε απόκρημνο ύψωμα, εντοπίστηκαν θεμέλια κτίσματος που ενσωμάτωνε, με τη σειρά του, τάφο, αρχαϊκών ίσως χρόνων." }, "geometry": { "type": "Point", "coordinates": [ 24.665667870911221, 40.74486208165623 ] } },
{ "type": "Feature", "properties": { "id": 8, "Nom": null, "Nom_GR": "Κατασκήνωση Λιμένα", "Texte": "Εντοπίστηκαν ερείπια ναϋδρίου, ίσως βυζαντινών χρόνων, από το οποίο σώζονται κατά χώραν αρκετοί δόμοι, θωράκια, καθώς και τμήματα κιόνίον." }, "geometry": { "type": "Point", "coordinates": [ 24.708645720993943, 40.749893410258665 ] } },
{ "type": "Feature", "properties": { "id": 9, "Nom": null, "Nom_GR": "Θέση Άγιος Κωνσταντίνος", "Texte": "Εντοπίστηκαν αρχαίοι δόμοι, χωρίς ενδείξεις για την προέλευση και τη χρονολόγηση τους." }, "geometry": { "type": "Point", "coordinates": [ 24.701138613390196, 40.74960356350217 ] } },
{ "type": "Feature", "properties": { "id": 10, "Nom": null, "Nom_GR": "Θέση Βάλτες", "Texte": "Σε αγροτεμάχιο ιδιοκτησίας Γ. Αγοράκη, νότια της περιφερειακής οδού του Λιμένα, εντοπίστηκε πιεστήριο ελαιουργείου μεγάλων διαστάσεων β)," }, "geometry": { "type": "Point", "coordinates": [ 24.701022652482909, 40.770081621275061 ] } },
{ "type": "Feature", "properties": { "id": 11, "Nom": null, "Nom_GR": "Θέση Λαγούδι", "Texte": "Σε πλάτωμα λόφου, ανάμεσα στο Λιμένα και στον Αγιο Κωνσταντίνο, εντοπίστηκαν οικοδομικά λείψανα." }, "geometry": { "type": "Point", "coordinates": [ 24.687108183559673, 40.748093390479283 ] } },
{ "type": "Feature", "properties": { "id": 12, "Nom": null, "Nom_GR": "Λατομείο Χαριτόπουλον", "Texte": "δρόμος, κατασκευασμένος με την τεχνική των καθέτως τοποθετημένων λίθων και με κεντρική αύλακα απορροής των υδάτων." }, "geometry": { "type": "Point", "coordinates": [ 24.691138790161496, 40.743033896581096 ] } },
{ "type": "Feature", "properties": { "id": 13, "Nom": null, "Nom_GR": "Αστρίς", "Texte": "Σε οικόπεδο ιδιοκτησίας Ζήση Μόραλη, όμορο προς την οδική αρτηρία Ποτού-Αλυκής, εντοπίστηκαντα λείψανα εκτεταμένου συγκροτήματος\nυστερορ" }, "geometry": { "type": "Point", "coordinates": [ 24.650987744643121, 40.58573994376821 ] } },
{ "type": "Feature", "properties": { "id": 14, "Nom": null, "Nom_GR": "Θέση Κοχλιός", "Texte": "σε φυσικό βραχώδες έξαρμα, στην περιοχή ανάμεσα στο ακρωτήριο του Αγίου Αντωνίου και στα όρια της Αίττρίδος. Εντοπίστηκαν τοίχοι δυο τουλά" }, "geometry": { "type": "Point", "coordinates": [ 24.628182587072445, 40.595601649406781 ] } },
{ "type": "Feature", "properties": { "id": 15, "Nom": null, "Nom_GR": "Θέση Άγιος Ιωάννης Λουκάς", "Texte": "Στο φυσικό όρμο του Αγίου Ιωάννη Λουκά, όπου ήταν γνωστοί δύο πύργοι, ήδη από τις αρχές του 20ού αι εντοπίστηκαν Κτίσμα μεγάλων διαστάσεων." }, "geometry": { "type": "Point", "coordinates": [ 24.760722809524299, 40.613268461139398 ] } },
{ "type": "Feature", "properties": { "id": 16, "Nom": null, "Nom_GR": "Περιφερειακός δρόμος Θεολόγου", "Texte": "εντοπίστηκαν πέτρες που δίνουν την εντύπωση ότι τοποθετήθηκαν σκοπίμως έτσι ώστε να σχηματίζουν ημικύκλιο." }, "geometry": { "type": "Point", "coordinates": [ 24.69234661742178, 40.667914330838187 ] } },
{ "type": "Feature", "properties": { "id": 17, "Nom": null, "Nom_GR": "Λόφος βόρεια του Θεολόγου", "Texte": "Σε απόσταση 500 μ. περίπου βόρεια του ίδιου δρόμου, στο απόκρημνο πετρώδες υψωμα που αναπτύσσεται στα βορειοδυτικά, εντοπίστηκε σε ιοά όρθιω" }, "geometry": { "type": "Point", "coordinates": [ 24.684021957963687, 40.672999440770141 ] } },
{ "type": "Feature", "properties": { "id": 18, "Nom": null, "Nom_GR": "θέση Ληνοί", "Texte": "Ανάμεσα στα Καλύβια και τον Άγιο Δημήτριο εντοπίστηκαν λείψανα κτισμάτων που δεν αποκλείεται να ανήκουν σε εργαστηριακές εγκαταστάσεις." }, "geometry": { "type": "Point", "coordinates": [ 24.579465786046224, 40.640504905562096 ] } },
{ "type": "Feature", "properties": { "id": 19, "Nom": null, "Nom_GR": "Θέση Καπονύχι", "Texte": "200μ. περίπου βόρεια της εκκλησίας του Αγίου Δημητρίου και μεγάλης συγκέντρωσης στείρων λατομικών προϊόντων, εντοπίστηκαν λείψανα κτισμά." }, "geometry": { "type": "Point", "coordinates": [ 24.589169512762009, 40.641462914792498 ] } },
{ "type": "Feature", "properties": { "id": 20, "Nom": null, "Nom_GR": "Θέση Πλατάνα περιοχής Κεφάλα", "Texte": "Στην περιοχή Κεφαλά ανάμεσα στην επέκταση του οικισμού των Λιμεναρίων και στο εκκλησάκι του Αγίου Τρύφωνα εντοπίστηκε έκταση με άφθονη κε" }, "geometry": { "type": "Point", "coordinates": [ 24.552971093362157, 40.634088602010316 ] } },
{ "type": "Feature", "properties": { "id": 21, "Nom": null, "Nom_GR": "Θέση Στο Σπιτούδι", "Texte": "Στην περιοχή της Αγίας Κυριακής, λίγο πριν τη Σκάλα Παναγίας, εντοπίστηκαν αρχιτεκτονικά λείψανα κτίσματος μεγάλων διαστάσεων." }, "geometry": { "type": "Point", "coordinates": [ 24.74743014194458, 40.724807325923258 ] } },
{ "type": "Feature", "properties": { "id": 22, "Nom": null, "Nom_GR": "Θέση Καστανιές", "Texte": "Στο δασικό δρόμο που οδηγεί από τον Αγιο Παντελεήμονα στους Τρεις Γκρεμούς, εντοπίστηκαν πυκνότατα ίχνη εγκατάστασης, κυρίως τοιχία." }, "geometry": { "type": "Point", "coordinates": [ 24.711362725322555, 40.735609650642729 ] } },
{ "type": "Feature", "properties": { "id": 23, "Nom": null, "Nom_GR": "Θέση Πυργί", "Texte": "Σε απότομη κορυφή, νότια της Παναγίας, προσπελάσιμη από την περιφερειακή οδό της κοινότητας ή από το δασικό δρόμο Καστανιών-Ποταμιάς." }, "geometry": { "type": "Point", "coordinates": [ 24.717647845961, 40.724996325791274 ] } },
{ "type": "Feature", "properties": { "id": 24, "Nom": null, "Nom_GR": "Θέση Παναγούδα", "Texte": "ανθρωπόμορφη, λαξευμένη στο φυσικό βράχο, σαρκοφάγος, που είχε εντοπιστεί κατά την περίοδο του μεσοπολέμου από τον Βοn." }, "geometry": { "type": "Point", "coordinates": [ 24.732061014544581, 40.711477963561634 ] } },
{ "type": "Feature", "properties": { "id": 25, "Nom": null, "Nom_GR": "Θέση Άδανα", "Texte": "Στην ευρεία περιοχή που φέρει αυτή την επωνυμία, νότια του δρόμου που οδηγεί από το χωριό Ποταμιά στην Κατασκήνωση, είχαν εντοπιστεί ήδη απ" }, "geometry": { "type": "Point", "coordinates": [ 24.739106106115127, 40.710258133814023 ] } },
{ "type": "Feature", "properties": { "id": 26, "Nom": null, "Nom_GR": "Θέση Το Αλωνούδι", "Texte": "Στην παρειά του δασικού δρόμου, εντοπίστηκαν κιβωτιόσχημοι τάφοι, που ωστόσο δεν στάθηκε δυνατόν να ερευνηθούν." }, "geometry": { "type": "Point", "coordinates": [ 24.71512771956208, 40.716283858889014 ] } },
{ "type": "Feature", "properties": { "id": 27, "Nom": null, "Nom_GR": "Περιοχή Βουλγάρα", "Texte": "Εντοπίστηκαν τοιχία με συνδετικό ασβεστοκονίαιια στις δύο «όχθες» ενός χειμαρρορέματος.\n" }, "geometry": { "type": "Point", "coordinates": [ 24.741018597571383, 40.703699783298504 ] } },
{ "type": "Feature", "properties": { "id": 28, "Nom": null, "Nom_GR": "Περιοχή Βουλγάρα (Οικόπεδο Ν. Καραβούζη)", "Texte": "Εντοπίστηκε μικρή ποσότητα κεραμικής ιστορικών χρόνων." }, "geometry": { "type": "Point", "coordinates": [ 24.734834270613526, 40.702900070673472 ] } },
{ "type": "Feature", "properties": { "id": 29, "Nom": null, "Nom_GR": "Θέση Τσιμδέλια (Οικόπεδο Σωτ. Κοντλή)", "Texte": "Εντοπίστηκε μικρή ποσότητα κεραμικής ιστορικών χρόνων και, αβέβαια ίχνη αρχαίου κτίσματος." }, "geometry": { "type": "Point", "coordinates": [ 24.741401985630851, 40.698494014262742 ] } },
{ "type": "Feature", "properties": { "id": 30, "Nom": null, "Nom_GR": "Θέση Ψιτάκι", "Texte": "Σε πολύ μικρή απόσταση, δυτικά του λατομείου της Εταιρείας «Βαλκάν», πάνω στο δασικό δρόμο που οδηγεί από τις Μαρίες προς το πυροφυλάκιο." }, "geometry": { "type": "Point", "coordinates": [ 24.649213808031643, 40.720869586266218 ] } },
{ "type": "Feature", "properties": { "id": 31, "Nom": null, "Nom_GR": "Θέση Ψιτάκι", "Texte": "Στα όρια της υπό λατόμευοη ε'κτασης της Εταιρείας «Θάσος Α.Ε.», εντοπίστηκε δεύτερο καμίνι σίδηρο μεταλλεύματος." }, "geometry": { "type": "Point", "coordinates": [ 24.648164534940388, 40.72641448243796 ] } },
{ "type": "Feature", "properties": { "id": 32, "Nom": null, "Nom_GR": "Θέση Κεραίες", "Texte": "Στο σημείο όπου βρίσκεται σήμερα το πυροφυλάκιο του νησιού, επιφανειακή έρευνα έδειξε ότι, υπήρχε αρχαίο κτίσμα, πιθανότατα πύργος." }, "geometry": { "type": "Point", "coordinates": [ 24.651983846081304, 40.733442601211067 ] } },
{ "type": "Feature", "properties": { "id": 33, "Nom": null, "Nom_GR": "Θέση Άγιος Κωνσταντίνος", "Texte": "Λίγο ψηλότερα από τη θέση Φιάλη, όπου ήταν γνωστή από παλαιότερα η ύπαρξη εκτεταμένης αγροικίας, εντοπίστηκαν δυο αγροικίες ελληνιστικών" }, "geometry": { "type": "Point", "coordinates": [ 24.6001538219382, 40.736073596828184 ] } },
{ "type": "Feature", "properties": { "id": 34, "Nom": null, "Nom_GR": "Θέση Τραπέζια", "Texte": "Εντοπίστηκε, κατεστραμμένος εν μέρει κατά την κατασκευή του δρόμου, κιβωτιόσχημος τάφος (θήκη) με άριστη διατήρηση των σκελετικών λειψάν." }, "geometry": { "type": "Point", "coordinates": [ 24.666942192235531, 40.728825241024317 ] } },
{ "type": "Feature", "properties": { "id": 35, "Nom": null, "Nom_GR": "Περιοχή Αγίου Γεωργίου", "Texte": "Στην ευρεία αυτή περιοχή εντοπίστηκαν οι εξής αρχαιότητες." }, "geometry": { "type": "Point", "coordinates": [ 24.645736165135961, 40.749087583598033 ] } },
{ "type": "Feature", "properties": { "id": 36, "Nom": null, "Nom_GR": "Δίπλα οτο Σκουπιδότοπο", "Texte": "Στα πλαίσια αυτοψίας για έκδοση άδειας λατομικών εργασιών στην εταιρεία «Γερακούδης», εντοπίστηκαν δόμοι και κεραμική ιστορικών χρόνων." }, "geometry": { "type": "Point", "coordinates": [ 24.636713333162263, 40.751823275007702 ] } },
{ "type": "Feature", "properties": { "id": 37, "Nom": null, "Nom_GR": "Θέση Μπαλμπακιά", "Texte": "Εντοπίστηκαν τμήματα των αναλημμάτων της, τα θεμέλια ενός ορθογώνιου πύργου, καθώς και αρκετή κεραμική ιστορικών χρόνων." }, "geometry": { "type": "Point", "coordinates": [ 24.548993804680276, 40.713332959678425 ] } },
{ "type": "Feature", "properties": { "id": 38, "Nom": null, "Nom_GR": "Θέση Βουδνίκι", "Texte": "Εντοπίστηκε λαξευμένος σε φυσικό βράχο κύκλος με διάμετρο 0,20 μ., του οποίου η ταυτότητα και λειτουργία αγνοείται." }, "geometry": { "type": "Point", "coordinates": [ 24.553373430092336, 40.709451515603462 ] } },
{ "type": "Feature", "properties": { "id": 39, "Nom": null, "Nom_GR": "Οικόπεδο Παπαδημητρίου", "Texte": "Εντοπίστηκαν τα ίχνη ενός παράκτιου κτίσματος ιστορικών χρόνων." }, "geometry": { "type": "Point", "coordinates": [ 24.537922951619144, 40.708181747083586 ] } },
{ "type": "Feature", "properties": { "id": 40, "Nom": null, "Nom_GR": "Θέση Αγρίδι", "Texte": "Η θέση βρίσκεται στα ανατολικά και σε άμεση γειτνίαση με τα τελευταία σπίτια του χωριού. Εντοπίστηκαν τα λείψανα ενός Πύργου κλασικών-ελλη" }, "geometry": { "type": "Point", "coordinates": [ 24.548031677801312, 40.703602266974983 ] } },
{ "type": "Feature", "properties": { "id": 41, "Nom": null, "Nom_GR": "Θέση Καλογερικά Σπίτια", "Texte": "Εντοπίστηκε αγροικία χτισμένη με ογκώδεις δόμους πωρόλιθου. Περισυνελέγη κεραμική ιστορικών χρόνων χωρίς ακριβέστερες χρονολογικές ενδ." }, "geometry": { "type": "Point", "coordinates": [ 24.538085428183233, 40.700963459798885 ] } },
{ "type": "Feature", "properties": { "id": 42, "Nom": null, "Nom_GR": "Θέση Κλίσμα", "Texte": "Στην έξοδο προς Μαρίες, ακριβώς πάνω στην οδική αρτηρία, εντοπίστηκε αποκολλημένη από ασβεστολιθικό πέτρωμα λεκάνη ή σαρκοφάγος με ορθογώ" }, "geometry": { "type": "Point", "coordinates": [ 24.531002853963216, 40.697807108293716 ] } },
{ "type": "Feature", "properties": { "id": 43, "Nom": null, "Nom_GR": "Θέση Αγία Μαρίνη", "Texte": "Εντοπίστηκαν θεμέλια τοίχων, αναλήμματα ανδήρων, κεραμική και κεράμωση μιας αγροικίας που ίσως χρονολογείται στη ρωμαϊκή εποχή." }, "geometry": { "type": "Point", "coordinates": [ 24.549075151086207, 40.696379775047852 ] } },
{ "type": "Feature", "properties": { "id": 44, "Nom": null, "Nom_GR": "Θέση Τουμπάρι", "Texte": "Εντοπίστηκαν τα λείψανα μια αγροικίας-πύργου κλασικών, πιθανώς, χρόνων. Στην ίδια θέση είναι ορατά τα ερείπια ληνιόν, δεξαμενής και καλύβα." }, "geometry": { "type": "Point", "coordinates": [ 24.54570978323574, 40.689346037763698 ] } },
{ "type": "Feature", "properties": { "id": 45, "Nom": null, "Nom_GR": "Βιοτεχνία Σκυροδέματος Λαδίκα.", "Texte": "Σε αυτοψία για την έκδοση άδειας λειτουργίας της βιοτεχνίας, εντοπίστηκαν οικοδομικά λείψανα και κεραμική αρχαίου κτίσματος." }, "geometry": { "type": "Point", "coordinates": [ 24.556568661803141, 40.642799592252132 ] } },
{ "type": "Feature", "properties": { "id": 46, "Nom": null, "Nom_GR": "Προς Άι-Μάτη.", "Texte": "Σε αυτοψία για την ε'κδοση άδειας εγκατάστασης κεραίας κινητής τηλεφωνίας, εντοπίστηκε πάνω ακριβώς στο δρόμο." }, "geometry": { "type": "Point", "coordinates": [ 24.531076216341457, 40.651480050593769 ] } },
{ "type": "Feature", "properties": { "id": 47, "Nom": null, "Nom_GR": "Προς Αι-Μάτη.", "Texte": "Σε άμεση γειτνίαση με τον ίδιο δρόμο και σε απόσταση 500 μ. περίπου από την κορυφή, εντοπίστηκε αρχαία εγκατάσταση, πιθανοίς κτηνοτροφικού." }, "geometry": { "type": "Point", "coordinates": [ 24.548189398330532, 40.669024413048831 ] } },
{ "type": "Feature", "properties": { "id": 48, "Nom": null, "Nom_GR": "Θέση Παπαξέν το Ραχώνι", "Texte": "Στη βόρεια είσοδο του χωριού, σε χαμηλό λόφο που βρίσκεται ανατολικά της οδικής αρτηρίας, εντοπίστηκε αγροικία ιστορικών χρόνων." }, "geometry": { "type": "Point", "coordinates": [ 24.556761098703642, 40.732178765054016 ] } }
]
}
