{
"type": "FeatureCollection",
"name": "ateliers_amphoriques",
"crs": { "type": "name", "properties": { "name": "urn:ogc:def:crs:OGC:1.3:CRS84" } },
"features": [
{ "type": "Feature", "properties": { "RecNum": 6, "Nom": "Balobakia" }, "geometry": { "type": "Point", "coordinates": [ 24.536320075162489, 40.702950555127686 ] } },
{ "type": "Feature", "properties": { "RecNum": 7, "Nom": "Douka Ambéli" }, "geometry": { "type": "Point", "coordinates": [ 24.534417214165124, 40.698863547311689 ] } },
{ "type": "Feature", "properties": { "RecNum": 8, "Nom": "Chioni" }, "geometry": { "type": "Point", "coordinates": [ 24.56702979085895, 40.723110753817863 ] } },
{ "type": "Feature", "properties": { "RecNum": 9, "Nom": "Aermolas" }, "geometry": { "type": "Point", "coordinates": [ 24.570427418825879, 40.709829194306153 ] } },
{ "type": "Feature", "properties": { "RecNum": 10, "Nom": "Skala Mariès" }, "geometry": { "type": "Point", "coordinates": [ 24.517023999918187, 40.642739601800777 ] } },
{ "type": "Feature", "properties": { "RecNum": 11, "Nom": "Ag. Tryphonas" }, "geometry": { "type": "Point", "coordinates": [ 24.54746245125963, 40.645735903788513 ] } },
{ "type": "Feature", "properties": { "RecNum": 12, "Nom": "Liménaria" }, "geometry": { "type": "Point", "coordinates": [ 24.568388253355785, 40.625983178935826 ] } },
{ "type": "Feature", "properties": { "RecNum": 13, "Nom": "Kéramidi" }, "geometry": { "type": "Point", "coordinates": [ 24.570018934619647, 40.634156974944425 ] } },
{ "type": "Feature", "properties": { "RecNum": 14, "Nom": "Kounouphia" }, "geometry": { "type": "Point", "coordinates": [ 24.569883482687811, 40.655407128740698 ] } },
{ "type": "Feature", "properties": { "RecNum": 15, "Nom": "Ag. Georgos" }, "geometry": { "type": "Point", "coordinates": [ 24.522323231298067, 40.680200333519764 ] } },
{ "type": "Feature", "properties": { "RecNum": 16, "Nom": "Koukos" }, "geometry": { "type": "Point", "coordinates": [ 24.656714255454975, 40.576670465384964 ] } },
{ "type": "Feature", "properties": { "RecNum": 17, "Nom": "Vamvouri Ammoudia" }, "geometry": { "type": "Point", "coordinates": [ 24.641494882673253, 40.581302057049207 ] } },
{ "type": "Feature", "properties": { "RecNum": 18, "Nom": "Sotiros" }, "geometry": { "type": "Point", "coordinates": [ 24.576677534978106, 40.718444715752824 ] } },
{ "type": "Feature", "properties": { "RecNum": 19, "Nom": "Ag. Eirini" }, "geometry": { "type": "Point", "coordinates": [ 24.673904191681771, 40.782606484622299 ] } },
{ "type": "Feature", "properties": { "RecNum": 20, "Nom": "Ag. Ioannis" }, "geometry": { "type": "Point", "coordinates": [ 24.732063127929283, 40.753454924135539 ] } },
{ "type": "Feature", "properties": { "RecNum": 21, "Nom": "Loutro I" }, "geometry": { "type": "Point", "coordinates": [ 24.768209170242859, 40.660550155675971 ] } },
{ "type": "Feature", "properties": { "RecNum": 22, "Nom": "Tsaïri" }, "geometry": { "type": "Point", "coordinates": [ 24.754348543800823, 40.715311777438721 ] } },
{ "type": "Feature", "properties": { "RecNum": 23, "Nom": "Loutro II" }, "geometry": { "type": "Point", "coordinates": [ 24.76459100549021, 40.652938960926981 ] } },
{ "type": "Feature", "properties": { "RecNum": 24, "Nom": "Molos" }, "geometry": { "type": "Point", "coordinates": [ 24.690804799259439, 40.775539574104322 ] } },
{ "type": "Feature", "properties": { "RecNum": 25, "Nom": "Kalonéro" }, "geometry": { "type": "Point", "coordinates": [ 24.776413063784521, 40.695031785853686 ] } }
]
}
