{
"type": "FeatureCollection",
"name": "sites",
"crs": { "type": "name", "properties": { "name": "urn:ogc:def:crs:OGC:1.3:CRS84" } },
"features": [
{ "type": "Feature", "properties": { "id": 15, "type": "Tour carrée", "precision": 3, "Name": null, "Nom": "Marmora", "ID_prospec": null, "desc": "Osborne 1986 \"On the east slope of Cape Pakhys 'an ancient fort'. Baker-Penoyre 229." }, "geometry": { "type": "Point", "coordinates": [ 24.657561300301307, 40.791239259923394 ] } },
{ "type": "Feature", "properties": { "id": 3, "type": "Tour carrée", "precision": 2, "Name": null, "Nom": "Akrotiri cape", "ID_prospec": null, "desc": "Osborne 1986 \"The cape is heavily overgrown. There are pines directly to the east but olives on the coastal plain to the south. Clear view to Cape Pakhys to the north and along the coast south. Tower not found and dimensions unknown. BCH 85 (1961) 940" }, "geometry": { "type": "Point", "coordinates": [ 24.63444326187004, 40.793462819415971 ] } },
{ "type": "Feature", "properties": { "id": 27, "type": "Tour ronde", "precision": 2, "Name": null, "Nom": "Phanari cape", "ID_prospec": null, "desc": "Osborne 1986 \"On the point immediately south of a quarry where the rock has been cut down to sea-level, a tower 3-5 m in diameter" }, "geometry": { "type": "Point", "coordinates": [ 24.729998873704542, 40.777168921031816 ] } },
{ "type": "Feature", "properties": { "id": 20, "type": "Tour carrée", "precision": 3, "Name": null, "Nom": "Saliari", "ID_prospec": null, "desc": "Osborne 1986 \"On the south side of the bay a tower 10.2 x 9.9 m with associated stairway and terracing.\nThe tower stands to some 2 m on the lower side, with a foundation levelling course and parpens above." }, "geometry": { "type": "Point", "coordinates": [ 24.746634369652824, 40.75087866155382 ] } },
{ "type": "Feature", "properties": { "id": 29, "type": "Tour ronde", "precision": 2, "Name": null, "Nom": "Pyrgos", "ID_prospec": null, "desc": "Osborne 1986 \"On the cape a tower 5.2 m in diameter preserved to a metre high. From this tower comes the inscription in late Archaic lettering suggesting that it served some sort of warning function for sailors..." }, "geometry": { "type": "Point", "coordinates": [ 24.781407137023191, 40.731350895303137 ] } },
{ "type": "Feature", "properties": { "id": 9, "type": "Tour carrée", "precision": 2, "Name": null, "Nom": "Helleniko", "ID_prospec": null, "desc": "Osborne 1986 \"About 2 km south of Potamia, a tower 9.62 x 9.62 m of well-dressed ashlar blocks. Now very heavily overgrown with brushwood but excavated by Bon who found evidence for a late fourth- or\nearly third-century date..." }, "geometry": { "type": "Point", "coordinates": [ 24.742865962231754, 40.708584129208283 ] } },
{ "type": "Feature", "properties": { "id": 8, "type": "Tour carrée", "precision": 2, "Name": null, "Nom": "Gravousa", "ID_prospec": null, "desc": "Osborne 1986 \"Some 50 m from the tip of the cape a tower 10.3 x 6.3 m, of which only the foundations are preserved, in a court. There is a light scatter of sherds both in the area of the tower and higher up the\npoint...  Autopsy.Bon I6o-I." }, "geometry": { "type": "Point", "coordinates": [ 24.776152190194274, 40.703831046723884 ] } },
{ "type": "Feature", "properties": { "id": 14, "type": "Tour carrée", "precision": 3, "Name": null, "Nom": "Loutro", "ID_prospec": null, "desc": "Osborne 1986 \"South of Kinyra, at the rear of the plain between two ravines a tower 7 x 7 m. The tower\nappears not to be visible today, and may possibly be concealed by the modern road..." }, "geometry": { "type": "Point", "coordinates": [ 24.762978504705316, 40.658984394062649 ] } },
{ "type": "Feature", "properties": { "id": 26, "type": "Tour ronde", "precision": 2, "Name": null, "Nom": "Loutro", "ID_prospec": null, "desc": "Osborne 1986 \"On hill at south end of Kinyra bay a circular basis some i o m in diameter. Apparently on a slope now covered in pines and much cut about by modern tracks. Baker-Penoyre 234, Bon 162." }, "geometry": { "type": "Point", "coordinates": [ 24.76779691805643, 40.652309320295998 ] } },
{ "type": "Feature", "properties": { "id": 25, "type": "Tour ronde", "precision": 2, "Name": null, "Nom": "Ag.Nikolaos bay", "ID_prospec": null, "desc": "Osborne 1986 \"On the east side of the bay further back from the sea than the square tower to the west a round defence work about I o m in diameter. For the general situation, see no. i. Baker-Penoyre\n235, Bon 163." }, "geometry": { "type": "Point", "coordinates": [ 24.762827817977293, 40.617540234743025 ] } },
{ "type": "Feature", "properties": { "id": 1, "type": "Tour carrée", "precision": 3, "Name": null, "Nom": "Ag. Nikolaos", "ID_prospec": null, "desc": "Osborne 1986 \"A tower of 10x10 m lies on the west side of the bay at the very edge of the cliff. Only the lowest course remains. There is a commanding view over the bay but no\nfurther..." }, "geometry": { "type": "Point", "coordinates": [ 24.7600084572199, 40.617631077357338 ] } },
{ "type": "Feature", "properties": { "id": 7, "type": "Tour carrée", "precision": 3, "Name": null, "Nom": "Babouras cape", "ID_prospec": null, "desc": "Osborne 1986 \"Yvon Garlan tells me that there is a quadrangular tower on this cape.\"" }, "geometry": { "type": "Point", "coordinates": [ 24.771790770588719, 40.614057739448455 ] } },
{ "type": "Feature", "properties": { "id": 21, "type": "Tour carrée", "precision": 3, "Name": null, "Nom": "Skhidia", "ID_prospec": null, "desc": "Osborne 1986 \"In the middle of traces of quarrying, I km west of Aliki, a tower 9 x 9 m. This is the site of a Byzantine village. The tower is substantially built and survives to a height of almost 2 m...\"" }, "geometry": { "type": "Point", "coordinates": [ 24.730031757455013, 40.604211354531017 ] } },
{ "type": "Feature", "properties": { "id": 30, "type": "Tour ronde", "precision": 2, "Name": null, "Nom": "Thymonia", "ID_prospec": null, "desc": "Osborne 1986 \"On the spur projecting from the hill range to the west a tower of c.20 m diameter standing to more than 3 m high...\"" }, "geometry": { "type": "Point", "coordinates": [ 24.71769669725856, 40.60649129456727 ] } },
{ "type": "Feature", "properties": { "id": 31, "type": "Tour ronde", "precision": 2, "Name": null, "Nom": "Vathy Potamia", "ID_prospec": null, "desc": "Osborne 1986 \"On the point east of Vathy Potamia bay and immediately west of Moni Arkhangelou a tower 7.6 m in diameter preserved to three courses of well-shaped stones with some further fallen stones..." }, "geometry": { "type": "Point", "coordinates": [ 24.697230438049662, 40.597493368746292 ] } },
{ "type": "Feature", "properties": { "id": 4, "type": "Tour carrée", "precision": 2, "Name": null, "Nom": "Amygdalia", "ID_prospec": null, "desc": "Osborne 1986 \"At west end of ridge of hills due east of Astris a marble tower 7.5 x 8.0 m preserved to some 2 m high. The tower not only has a spectacular view over the whole south-west tip of the island...\"" }, "geometry": { "type": "Point", "coordinates": [ 24.676620831851501, 40.593655887022472 ] } },
{ "type": "Feature", "properties": { "id": 10, "type": "Tour carrée", "precision": 3, "Name": null, "Nom": "Kalami bay", "ID_prospec": null, "desc": "Osborne 1986 \"In the middle of the bay just behind the beach a tower of which one side is revealed in\nthe bank of the track leading down to the sea..." }, "geometry": { "type": "Point", "coordinates": [ 24.667136189427296, 40.583135412471115 ] } },
{ "type": "Feature", "properties": { "id": 5, "type": "Tour carrée", "precision": 0, "Name": null, "Nom": "Astris", "ID_prospec": null, "desc": "Osborne 1986 \"In the village forming the foundations for a house, a tower 9.9 x i 1.6 m. The tower is on rising ground but not at the top of the slope...\"" }, "geometry": { "type": "Point", "coordinates": [ 24.655387916194016, 40.589149786103889 ] } },
{ "type": "Feature", "properties": { "id": 23, "type": "Tour carrée", "precision": 3, "Name": null, "Nom": "Stin Trypiti", "ID_prospec": null, "desc": "Osborne 1986 \"On the steep slope on the north side of a dry valley which leads a crooked way down to the valley in which Avatsinia lies, a tower 8 x 8 m...\"" }, "geometry": { "type": "Point", "coordinates": [ 24.661224336359076, 40.595500814392466 ] } },
{ "type": "Feature", "properties": { "id": 12, "type": "Tour carrée", "precision": 3, "Name": null, "Nom": "Kokkina", "ID_prospec": null, "desc": "Osborne 1986 \"North of the cape, on hill south of Astris bay, a tower 9 x 14 m of local ironstone. If\ncorrectly identified this tower lies close to the modern triangulation point and only one or two blocks mark...\"" }, "geometry": { "type": "Point", "coordinates": [ 24.644503332522266, 40.576199276912803 ] } },
{ "type": "Feature", "properties": { "id": 6, "type": "Tour carrée", "precision": 3, "Name": null, "Nom": "Avatsinia", "ID_prospec": null, "desc": "Osborne 1986 \"In valley north of Astris running down to the north of the bay of Astris, and about\n2 km from the sea, a tower 8 x 8 m in a court 30 x 23 m ...\"" }, "geometry": { "type": "Point", "coordinates": [ 24.643714479448978, 40.593862612770046 ] } },
{ "type": "Feature", "properties": { "id": 11, "type": "Tour carrée", "precision": 3, "Name": null, "Nom": "Kamnarokaïko", "ID_prospec": null, "desc": "Osborne 1986 \"Kaminorokhaïko: In valley leading north-east from Psili Ammos, on hill to south of valley a tower\n7.5 x 5 m at the corner of an enclosure 26 x 13 m...\"" }, "geometry": { "type": "Point", "coordinates": [ 24.629548487783556, 40.593510871766249 ] } },
{ "type": "Feature", "properties": { "id": 18, "type": "Tour carrée", "precision": 3, "Name": "Ποτός", "Nom": "Potos", "ID_prospec": null, "desc": "Osborne 1986 \"Some distance from the sea at the foot of a hill at the south-west of the plain a tower\n16.3 x 17.8 m. Conze 34.\"" }, "geometry": { "type": "Point", "coordinates": [ 24.616794735651307, 40.602282174500296 ] } },
{ "type": "Feature", "properties": { "id": 18, "type": "Tour carrée", "precision": 3, "Name": "Ποτός", "Nom": "Potos", "ID_prospec": null, "desc": "Osborne 1986 \"North of the road to Theologo a tower 8.8 x 9.9 m. Conze 35.\"" }, "geometry": { "type": "Point", "coordinates": [ 24.619133135688561, 40.615611054712282 ] } },
{ "type": "Feature", "properties": { "id": 13, "type": "Tour carrée", "precision": 0, "Name": null, "Nom": "Limenaria", "ID_prospec": null, "desc": "Tour carrée située à proximité des installations Speidel selon la carte d'Osborne. Osborne 1986 \"Above the beach a tower 9 x 9 m. Conze 38, AM 33 (1908) 240.\"" }, "geometry": { "type": "Point", "coordinates": [ 24.567790799116363, 40.626047068729562 ] } },
{ "type": "Feature", "properties": { "id": 17, "type": "Tour carrée", "precision": 3, "Name": null, "Nom": "Phari", "ID_prospec": null, "desc": "Osborne 1986 \"In the broad valley south of Skala Maries, on an eminence claimed to dominate the whole\narea south to Cape Kephalas, a tower 9.4 x 9.4 m amid abandoned terracing and a heavy scatter of sherds...\"" }, "geometry": { "type": "Point", "coordinates": [ 24.523332656204708, 40.638330953038434 ] } },
{ "type": "Feature", "properties": { "id": 28, "type": "Tour ronde", "precision": 3, "Name": null, "Nom": "Phari", "ID_prospec": null, "desc": "Osborne 1986 \"In valley south of Skala Maries a tower 9 m in diameter. Conze 38. See general remarks for\nno. 17\"" }, "geometry": { "type": "Point", "coordinates": [ 24.520712546704175, 40.638237045105477 ] } },
{ "type": "Feature", "properties": { "id": 22, "type": "Tour carrée", "precision": 3, "Name": null, "Nom": "Theologo", "ID_prospec": null, "desc": "Osborne 1986 \"Half an hour before arriving at the village a tower 13.5 x 10.75 m on the west slope of a gentle hill. Long thin blocks with larger blocks above... Bon 165-7 with plan\"" }, "geometry": { "type": "Point", "coordinates": [ 24.678762336638457, 40.651271655279473 ] } },
{ "type": "Feature", "properties": { "id": 2, "type": "Tour carrée", "precision": 3, "Name": null, "Nom": "Ag. Vassilis", "ID_prospec": null, "desc": "Osborne 1986 \"on road from Skala Maries to Maries. A gneiss tower 10 x 10 m, of which only two corners and the lowest course of one side are now visible, lies on a slight natural eminence on the north bank of the stream...\" ; Bon 1930, p. 171." }, "geometry": { "type": "Point", "coordinates": [ 24.584144252283803, 40.65890679289847 ] } },
{ "type": "Feature", "properties": { "id": 24, "type": "Tour carrée", "precision": 3, "Name": null, "Nom": "Tsouknida", "ID_prospec": null, "desc": "Osborne 1986 \"Tsouknidha In the valley leading up from Prinos to Kasaviti, just to the south of the modern road about 2 km before Mikro Kasaviti a gneiss tower 8.0 x 8.8 m...\" ; Bon 1930, p. 174." }, "geometry": { "type": "Point", "coordinates": [ 24.59479957139084, 40.732688649210282 ] } },
{ "type": "Feature", "properties": { "id": 16, "type": "tour carrée", "precision": 3, "Name": null, "Nom": "Evraio", "ID_prospec": null, "desc": "Village médiéval avec tour carrée. Osborne 1986 \"Ovraio: A deserted medieval village on the path from Kasaviti to Rakhoni (now no longer in use) includes a tower 9.4 x 9.4 m of large blocks in irregular courses. This is now in pine forest. Bon 175-7.\"" }, "geometry": { "type": "Point", "coordinates": [ 24.620754610862832, 40.746666933839833 ] } },
{ "type": "Feature", "properties": { "id": null, "type": "Atelier", "precision": null, "Name": null, "Nom": "Balobakia", "ID_prospec": 1, "desc": "Garlan BCH 128-129 (2004-2005), p. 269-329." }, "geometry": { "type": "Point", "coordinates": [ 24.555405254039808, 40.706944315234423 ] } },
{ "type": "Feature", "properties": { "id": null, "type": "Atelier", "precision": null, "Name": null, "Nom": "Douka Ambéli", "ID_prospec": 2, "desc": "Garlan BCH 128-129 (2004-2005), p. 269-329. \"... à proximité imédiate d'une \"tour\" en bel appareil, un petit dépotoir composé essentiellement d'amphores et de tuiles (avec des surcuits).\"" }, "geometry": { "type": "Point", "coordinates": [ 24.557768337244266, 40.700438554502831 ] } },
{ "type": "Feature", "properties": { "id": null, "type": "Atelier", "precision": null, "Name": null, "Nom": "Chioni", "ID_prospec": 161, "desc": "Dépotoir d'atelier fouillé en 1995. Voir Garlan BCH 128-129 (2004-2005), p. 269-329." }, "geometry": { "type": "Point", "coordinates": [ 24.583895746870315, 40.732740675947859 ] } },
{ "type": "Feature", "properties": { "id": null, "type": "Habitat", "precision": null, "Name": "Αερμόλα", "Nom": "Aermolas", "ID_prospec": 195, "desc": "Habitat avec tour et atelier présumé Garlan BCH 128-129 (2004-2005), p. 269-329." }, "geometry": { "type": "Point", "coordinates": [ 24.562230981094693, 40.71440717224263 ] } },
{ "type": "Feature", "properties": { "id": null, "type": "Atelier", "precision": null, "Name": null, "Nom": "Skala Mariès", "ID_prospec": 101, "desc": "Dépotoir d'atelier sur 30m mais sans timbre \"sans doute antérieur à la pratique du timbrage\". Garlan BCH 128-129 (2004-2005), p. 269-329." }, "geometry": { "type": "Point", "coordinates": [ 24.515161823874784, 40.64625436270579 ] } },
{ "type": "Feature", "properties": { "id": null, "type": "Atelier", "precision": null, "Name": null, "Nom": "Ag. Tryphonas", "ID_prospec": 52, "desc": "A 500 m environ à l'Ouest d'Haghios Tryphonas, au Sud de la route qui va de Kéramidi à Skala Mariés, s'étale d'autre part une grande nappe de céramique d'apparence assez tardive (hell rom)...  Garlan BCH 128-129 (2004-2005), p. 312." }, "geometry": { "type": "Point", "coordinates": [ 24.561749019828145, 40.64540380310072 ] } },
{ "type": "Feature", "properties": { "id": null, "type": "Atelier", "precision": null, "Name": null, "Nom": "Liménaria", "ID_prospec": 48, "desc": "Atelier amphorique à la production importante. Garlan BCH 128-129 (2004-2005), p. 312-313." }, "geometry": { "type": "Point", "coordinates": [ 24.573328410368958, 40.627233377958049 ] } },
{ "type": "Feature", "properties": { "id": null, "type": "Atelier", "precision": null, "Name": null, "Nom": "Kéramidi", "ID_prospec": 50, "desc": "Atelier fouillé en 1984. Garlan 1986, p. 225-229 ; Garlan BCH 128-129 (2004-2005), p. 311." }, "geometry": { "type": "Point", "coordinates": [ 24.572218410048357, 40.634842887757472 ] } },
{ "type": "Feature", "properties": { "id": null, "type": "Atelier", "precision": null, "Name": null, "Nom": "Kounouphia", "ID_prospec": 92, "desc": "Atelier fouillé en 1985. Garlan 1993, p. 157-170 ; Garlan BCH 128-129 (2004-2005), p. 311." }, "geometry": { "type": "Point", "coordinates": [ 24.571018135693119, 40.654266494930802 ] } },
{ "type": "Feature", "properties": { "id": null, "type": "Atelier", "precision": null, "Name": null, "Nom": "Ag. Giorgos", "ID_prospec": 6, "desc": "Garlan BCH 128-129 (2004-2005), p. 269-329." }, "geometry": { "type": "Point", "coordinates": [ 24.522698368138609, 40.680987348437441 ] } },
{ "type": "Feature", "properties": { "id": null, "type": "Atelier", "precision": 0, "Name": null, "Nom": "Koukos", "ID_prospec": 255, "desc": "Large installation sur la colline fouillé en 1978. Garlan 1979 ; Garlan BCH 128-129 (2004-2005), p. 269-329." }, "geometry": { "type": "Point", "coordinates": [ 24.65607887146065, 40.57779574537625 ] } },
{ "type": "Feature", "properties": { "id": null, "type": "Atelier", "precision": null, "Name": null, "Nom": "Vamvouri Ammoudia", "ID_prospec": 248, "desc": "Atelier fouillé en 1979 et 1980. Garlan BCH 128-129 (2004-2005), p. 310." }, "geometry": { "type": "Point", "coordinates": [ 24.641494882673257, 40.5813020570492 ] } },
{ "type": "Feature", "properties": { "id": null, "type": "Habitat", "precision": null, "Name": null, "Nom": "Sotiros", "ID_prospec": null, "desc": "Habitat isolé das les hauteus fonctionnant entre le IVe et Ier siècle avant notre ère. A fait l'objet de fouilles en 2013 https://chronique.efa.gr/?kroute=report&id=4082" }, "geometry": { "type": "Point", "coordinates": [ 24.57667753497811, 40.718444715752817 ] } },
{ "type": "Feature", "properties": { "id": null, "type": "Atelier", "precision": null, "Name": null, "Nom": "Ag. Eirini", "ID_prospec": 204, "desc": "Garlan BCH 128-129 (2004-2005), p. 269-329." }, "geometry": { "type": "Point", "coordinates": [ 24.673904191681775, 40.782606484622299 ] } },
{ "type": "Feature", "properties": { "id": null, "type": "Atelier", "precision": null, "Name": null, "Nom": "Ag. Ioannis", "ID_prospec": null, "desc": "Garlan BCH 128-129 (2004-2005), p. 269-329." }, "geometry": { "type": "Point", "coordinates": [ 24.732063127929287, 40.753454924135525 ] } },
{ "type": "Feature", "properties": { "id": null, "type": "Atelier", "precision": null, "Name": null, "Nom": "Loutro I", "ID_prospec": null, "desc": "Garlan BCH 128-129 (2004-2005), p. 269-329." }, "geometry": { "type": "Point", "coordinates": [ 24.768209170242859, 40.660550155675971 ] } },
{ "type": "Feature", "properties": { "id": null, "type": "Atelier", "precision": null, "Name": null, "Nom": "Tsaïri", "ID_prospec": 131, "desc": "Garlan BCH 128-129 (2004-2005), p. 269-329." }, "geometry": { "type": "Point", "coordinates": [ 24.754348543800823, 40.715311777438721 ] } },
{ "type": "Feature", "properties": { "id": null, "type": "Atelier", "precision": null, "Name": null, "Nom": "Loutro II", "ID_prospec": null, "desc": "Garlan BCH 128-129 (2004-2005), p. 269-329." }, "geometry": { "type": "Point", "coordinates": [ 24.76459100549021, 40.652938960926974 ] } },
{ "type": "Feature", "properties": { "id": null, "type": "Atelier", "precision": null, "Name": null, "Nom": "Molos", "ID_prospec": 209, "desc": "Garlan BCH 128-129 (2004-2005), p. 269-329." }, "geometry": { "type": "Point", "coordinates": [ 24.690804799259439, 40.775539574104315 ] } },
{ "type": "Feature", "properties": { "id": null, "type": "Atelier", "precision": null, "Name": null, "Nom": "Kalonéro", "ID_prospec": null, "desc": "Garlan BCH 128-129 (2004-2005), p. 269-329." }, "geometry": { "type": "Point", "coordinates": [ 24.776413063784521, 40.695031785853686 ] } },
{ "type": "Feature", "properties": { "id": null, "type": "Habitat", "precision": 0, "Name": null, "Nom": "Phari", "ID_prospec": null, "desc": "Plusieurs structures rectangulaires affleurent et attestent de la présence probable d'un habitat." }, "geometry": { "type": "Point", "coordinates": [ 24.5225, 40.63861111 ] } },
{ "type": "Feature", "properties": { "id": null, "type": "Atelier", "precision": 2, "Name": null, "Nom": "Phari", "ID_prospec": null, "desc": "Atelier archaïque." }, "geometry": { "type": "Point", "coordinates": [ 24.52611111, 40.6375 ] } }
]
}
