{
"type": "FeatureCollection",
"name": "tours",
"crs": { "type": "name", "properties": { "name": "urn:ogc:def:crs:OGC:1.3:CRS84" } },
"features": [
{ "type": "Feature", "properties": { "id": 15, "type": "carré", "precision": 3, "Osborne": "On the east slope of Cape Pakhys 'an ancient fort'. Baker-Penoyre 229.", "Name": "Marmora." }, "geometry": { "type": "Point", "coordinates": [ 24.657561300301307, 40.791239259923394 ] } },
{ "type": "Feature", "properties": { "id": 3, "type": "carré", "precision": 2, "Osborne": "The cape is heavily overgrown. There are pines directly to the east but olives on the\ncoastal plain to the south. Clear view to Cape Pakhys to the north and along the coast south. Tower not\nfound and dimensions unknown. BCH 85 (1961) 940", "Name": "Akrotiri cape" }, "geometry": { "type": "Point", "coordinates": [ 24.63444326187004, 40.793462819415971 ] } },
{ "type": "Feature", "properties": { "id": 27, "type": "rond", "precision": 2, "Osborne": "On the point immediately south of a quarry where the rock has been cut down to sea-level, a tower 3-5 m in diameter", "Name": "Phanari cape" }, "geometry": { "type": "Point", "coordinates": [ 24.729998873704542, 40.777168921031823 ] } },
{ "type": "Feature", "properties": { "id": 20, "type": "carré", "precision": 3, "Osborne": "On the south side of the bay a tower 10.2 x 9.9 m with associated stairway and terracing.\nThe tower stands to some 2 m on the lower side, with a foundation levelling course and parpens above.", "Name": "Saliari." }, "geometry": { "type": "Point", "coordinates": [ 24.746634369652824, 40.750878661553813 ] } },
{ "type": "Feature", "properties": { "id": 29, "type": "rond", "precision": 2, "Osborne": "On the cape a tower 5.2 m in diameter preserved to a metre high. From this tower\ncomes the inscription in late Archaic lettering suggesting that it served some sort of warning function for\nsailors...", "Name": "Pyrgos" }, "geometry": { "type": "Point", "coordinates": [ 24.781407137023191, 40.731350895303144 ] } },
{ "type": "Feature", "properties": { "id": 9, "type": "carré", "precision": 2, "Osborne": "About 2 km south of Potamia, a tower 9.62 x 9.62 m of well-dressed ashlar blocks. Now\nvery heavily overgrown with brushwood but excavated by Bon who found evidence for a late fourth- or\nearly third-century date...", "Name": "Helleniko" }, "geometry": { "type": "Point", "coordinates": [ 24.742865962231754, 40.70858412920829 ] } },
{ "type": "Feature", "properties": { "id": 8, "type": "carré", "precision": 2, "Osborne": "Some 50 m from the tip of the cape a tower 10.3 x 6.3 m, of which only the foundations are preserved, in a court. There is a light scatter of sherds both in the area of the tower and higher up the\npoint...  Autopsy.Bon I6o-I.", "Name": "Gravousa" }, "geometry": { "type": "Point", "coordinates": [ 24.776152190194274, 40.703831046723877 ] } },
{ "type": "Feature", "properties": { "id": 14, "type": "carré", "precision": 3, "Osborne": "South of Kinyra, at the rear of the plain between two ravines a tower 7 x 7 m. The tower\nappears not to be visible today, and may possibly be concealed by the modern road...", "Name": "Loutro." }, "geometry": { "type": "Point", "coordinates": [ 24.762978504705316, 40.658984394062649 ] } },
{ "type": "Feature", "properties": { "id": 26, "type": "rond", "precision": 2, "Osborne": "On hill at south end of Kinyra bay a circular basis some i o m in diameter. Apparently on a\nslope now covered in pines and much cut about by modern tracks. Baker-Penoyre 234, Bon 162.", "Name": "Loutro." }, "geometry": { "type": "Point", "coordinates": [ 24.76779691805643, 40.652309320295998 ] } },
{ "type": "Feature", "properties": { "id": 25, "type": "rond", "precision": 2, "Osborne": "On the east side of the bay further back from the sea than the square tower to\nthe west a round defence work about I o m in diameter. For the general situation, see no. i. Baker-Penoyre\n235, Bon 163.", "Name": "Aghios Nikolaos bay" }, "geometry": { "type": "Point", "coordinates": [ 24.762827817977293, 40.617540234743025 ] } },
{ "type": "Feature", "properties": { "id": 1, "type": "carré", "precision": 3, "Osborne": "A tower of Io x I o m lies on the west side of the bay at\nthe very edge of the cliff. Only the lowest course remains. There is a commanding view over the bay but no\nfurther...", "Name": "Aghios Nikolaos" }, "geometry": { "type": "Point", "coordinates": [ 24.7600084572199, 40.617631077357338 ] } },
{ "type": "Feature", "properties": { "id": 7, "type": "carré", "precision": 3, "Osborne": "Yvon Garlan tells me that there is a quadrangular tower on this cape.", "Name": "Babouras cape" }, "geometry": { "type": "Point", "coordinates": [ 24.771790770588719, 40.614057739448462 ] } },
{ "type": "Feature", "properties": { "id": 21, "type": "carré", "precision": 3, "Osborne": "In the middle of traces of quarrying, I km west of Aliki, a tower 9 x 9 m. This is the site\nof a Byzantine village. The tower is substantially built and survives to a height of almost 2 m...", "Name": "Skhidia" }, "geometry": { "type": "Point", "coordinates": [ 24.730031757455013, 40.604211354531017 ] } },
{ "type": "Feature", "properties": { "id": 30, "type": "rond", "precision": 2, "Osborne": "On the spur projecting from the hill range to the west a tower of c.20 m diameter\nstanding to more than 3 m high...", "Name": "Thymonia" }, "geometry": { "type": "Point", "coordinates": [ 24.71769669725856, 40.60649129456727 ] } },
{ "type": "Feature", "properties": { "id": 31, "type": "rond", "precision": 2, "Osborne": "On the point east of Vathy Potamia bay and immediately west of Moni\nArkhangelou a tower 7.6 m in diameter preserved to three courses of well-shaped stones with some further\nfallen stones...", "Name": "Vathy Potamia" }, "geometry": { "type": "Point", "coordinates": [ 24.697230438049662, 40.597493368746292 ] } },
{ "type": "Feature", "properties": { "id": 4, "type": "carré", "precision": 2, "Osborne": "At west end of ridge of hills due east of Astris a marble tower 7.5 x 8.0 m preserved to\nsome 2 m high. The tower not only has a spectacular view over the whole south-west tip of the island...", "Name": "Amygdalia" }, "geometry": { "type": "Point", "coordinates": [ 24.676620831851501, 40.593655887022479 ] } },
{ "type": "Feature", "properties": { "id": 10, "type": "carré", "precision": 3, "Osborne": "In the middle of the bay just behind the beach a tower of which one side is revealed in\nthe bank of the track leading down to the sea...", "Name": "Kalami bay" }, "geometry": { "type": "Point", "coordinates": [ 24.667136189427296, 40.583135412471123 ] } },
{ "type": "Feature", "properties": { "id": 5, "type": "carré", "precision": 2, "Osborne": "In the village forming the foundations for a house, a tower 9.9 x i 1.6 m. The tower is on rising\nground but not at the top of the slope...", "Name": "Astris" }, "geometry": { "type": "Point", "coordinates": [ 24.655387916194016, 40.589149786103889 ] } },
{ "type": "Feature", "properties": { "id": 23, "type": "carré", "precision": 3, "Osborne": "On the steep slope on the north side of a dry valley which leads a crooked way down to\nthe valley in which Avatsinia lies, a tower 8 x 8 m...", "Name": "Stin Trypiti." }, "geometry": { "type": "Point", "coordinates": [ 24.661224336359076, 40.595500814392466 ] } },
{ "type": "Feature", "properties": { "id": 12, "type": "carré", "precision": 3, "Osborne": "North of the cape, on hill south of Astris bay, a tower 9 x 14 m of local ironstone. If\ncorrectly identified this tower lies close to the modern triangulation point and only one or two blocks mark...", "Name": "Kokkina" }, "geometry": { "type": "Point", "coordinates": [ 24.644503332522266, 40.57619927691281 ] } },
{ "type": "Feature", "properties": { "id": 6, "type": "carré", "precision": 3, "Osborne": "In valley north of Astris running down to the north of the bay of Astris, and about\n2 km from the sea, a tower 8 x 8 m in a court 30 x 23 m ...", "Name": "Avatsinia" }, "geometry": { "type": "Point", "coordinates": [ 24.646492416124403, 40.594097774370162 ] } },
{ "type": "Feature", "properties": { "id": 11, "type": "carré", "precision": 3, "Osborne": "In valley leading north-east from Psili Ammos, on hill to south of valley a tower\n7.5 x 5 m at the corner of an enclosure 26 x 13 m...", "Name": "Kaminorokhaïko" }, "geometry": { "type": "Point", "coordinates": [ 24.629548487783556, 40.593510871766242 ] } },
{ "type": "Feature", "properties": { "id": 18, "type": "carré", "precision": 3, "Osborne": "Some distance from the sea at the foot of a hill at the south-west of the plain a tower\nI6.3 x 17.8 m. Conze 34-", "Name": "Potos" }, "geometry": { "type": "Point", "coordinates": [ 24.616794735651307, 40.602282174500296 ] } },
{ "type": "Feature", "properties": { "id": 18, "type": "carré", "precision": 3, "Osborne": "North of the road to Theologo a tower 8.8 x 9.9 m. Conze 35.", "Name": "Potos" }, "geometry": { "type": "Point", "coordinates": [ 24.619133135688561, 40.615611054712289 ] } },
{ "type": "Feature", "properties": { "id": 13, "type": "carré", "precision": 3, "Osborne": "Above the beach a tower 9 x 9 m. Note that an amphora atelier is also known from the\nmiddle of Limenaria. Conze 38, AM 33 (19o8) 240.", "Name": "Limenaria" }, "geometry": { "type": "Point", "coordinates": [ 24.567790799116363, 40.626047068729562 ] } },
{ "type": "Feature", "properties": { "id": 17, "type": "carré", "precision": 3, "Osborne": "In the broad valley south of Skala Maries, on an eminence claimed to dominate the whole\narea south to Cape Kephalas, a tower 9.4 x 9.4 m amid abandoned terracing and a heavy scatter of sherds...", "Name": "Phari." }, "geometry": { "type": "Point", "coordinates": [ 24.523332656204708, 40.638330953038434 ] } },
{ "type": "Feature", "properties": { "id": 28, "type": "rond", "precision": 3, "Osborne": "In valley south of Skala Maries a tower 9 m in diameter. Conze 38. See general remarks for\nno. 17", "Name": "Phari" }, "geometry": { "type": "Point", "coordinates": [ 24.520712546704175, 40.638237045105477 ] } },
{ "type": "Feature", "properties": { "id": 22, "type": "carré", "precision": 3, "Osborne": "Half an hour before arriving at the village a tower 13.5 x 10.75 m on the west slope of a\ngentle hill. Long thin blocks with larger blocks above. The imprecision of the directions did not allow this\ntower to be traced on the ground. Bon 165-7 with plan", "Name": "Theologo." }, "geometry": { "type": "Point", "coordinates": [ 24.678762336638457, 40.651271655279473 ] } },
{ "type": "Feature", "properties": { "id": 2, "type": "carré", "precision": 3, "Osborne": "on road from Skala Maries to Maries. A gneiss tower Io x 10 m, of which only two\ncorners and the lowest course of one side are now visible, lies on a slight natural eminence on the north\nbank of the stream running from Maries to the sea...", "Name": "Aghios Vassilis" }, "geometry": { "type": "Point", "coordinates": [ 24.592826135269469, 40.665535895506295 ] } },
{ "type": "Feature", "properties": { "id": 24, "type": "carré", "precision": 3, "Osborne": "In the valley leading up from Prinos to Kasaviti, just to the south of the modern road\nabout 2 km before Mikro Kasaviti a gneiss tower 8.o x 8.8 m...", "Name": "Tsouknidha." }, "geometry": { "type": "Point", "coordinates": [ 24.59479957139084, 40.732688649210282 ] } },
{ "type": "Feature", "properties": { "id": 16, "type": "carré", "precision": 3, "Osborne": "A deserted medieval village on the path from Kasaviti to Rakhoni (now no longer in use)\nincludes a tower 9.4 x 9.4 m of large blocks in irregular courses. This is now in pine forest. Bon 175-7-", "Name": "Ovraio." }, "geometry": { "type": "Point", "coordinates": [ 24.620754610862832, 40.746666933839826 ] } }
]
}
